City_ID,City,Country,Lat,Lng,Max Temp,Humidity,Cloudiness,Wind Speed,Current Description
0,Sao Filipe,CV,14.90,-24.50,73.78,80,13,7.94,few clouds
1,Albany,US,42.60,-73.97,84.45,42,30,6.46,scattered clouds
2,Kavieng,PG,-2.57,150.80,81.68,78,96,15.7,light rain
3,Carnarvon,AU,-24.87,113.63,59.72,46,0,18.97,clear sky
4,Harlingen,US,26.19,-97.70,95.09,83,71,14.41,broken clouds
5,Cayenne,GF,4.93,-52.33,81.09,1,0,1.14,clear sky
6,Bluff,NZ,-46.60,168.33,42.8,75,100,29.1,overcast clouds
7,Atuona,PF,-9.80,-139.03,76.71,69,8,15.41,clear sky
8,Laguna,US,38.42,-121.42,91.31,38,0,10.36,clear sky
9,Kyra,RU,49.58,111.98,62.47,82,89,3.0,overcast clouds
10,Tabou,CI,4.42,-7.35,77.16,78,95,8.84,overcast clouds
11,Airai,TL,-8.93,125.41,59.02,95,91,1.14,overcast clouds
12,Poum,NC,-20.23,164.02,73.4,68,9,12.86,clear sky
13,Bay Roberts,CA,47.60,-53.26,63.66,89,100,5.1,light rain
14,Te Anau,NZ,-45.42,167.72,40.26,88,82,5.79,broken clouds
15,Puerto Ayora,EC,-0.74,-90.35,78.76,83,57,8.01,broken clouds
16,Palmer,US,42.16,-72.33,83.55,41,20,0.0,few clouds
17,Mar Del Plata,AR,-38.00,-57.56,48.09,65,0,3.44,clear sky
18,Ushibuka,JP,32.19,130.02,77.54,86,4,3.8,clear sky
19,Sonari,IN,27.07,95.03,75.13,98,100,2.55,moderate rain
20,Tevaitoa,PF,-16.78,-151.50,78.96,74,20,23.69,light rain
21,Manokwari,ID,-0.87,134.08,79.45,75,31,5.57,scattered clouds
22,Alugan,PH,12.22,125.48,81.19,82,100,13.18,light rain
23,Hithadhoo,MV,-0.60,73.08,81.03,77,99,6.85,moderate rain
24,Alamosa,US,37.47,-105.87,72.82,39,71,15.7,broken clouds
25,Acapulco,MX,16.86,-99.89,85.98,70,25,10.96,scattered clouds
26,Codrington,AU,-38.27,141.97,50.41,68,100,10.87,overcast clouds
27,Jamestown,US,42.10,-79.24,83.79,45,75,9.22,broken clouds
28,Torbay,CA,47.67,-52.73,62.89,92,100,8.05,mist
29,Yerbogachen,RU,61.28,108.01,62.89,68,7,3.51,clear sky
30,Ribeira Grande,PT,38.52,-28.70,68.61,92,96,8.86,overcast clouds
31,Mataura,NZ,-46.19,168.86,42.48,86,95,9.04,light rain
32,Busselton,AU,-33.65,115.33,47.61,85,0,5.84,clear sky
33,Severo-Kurilsk,RU,50.68,156.12,53.47,75,31,15.43,scattered clouds
34,Abu Samrah,SY,35.30,37.18,73.99,59,0,7.76,clear sky
35,Bathsheba,BB,13.22,-59.52,84.81,70,75,20.71,broken clouds
36,Gold Coast,AU,-28.00,153.43,59.23,95,100,5.75,moderate rain
37,Aksarka,RU,66.56,67.80,47.59,72,100,8.75,overcast clouds
38,Hobart,AU,-42.88,147.33,39.06,90,20,8.05,few clouds
39,Butaritari,KI,3.07,172.79,82.67,76,76,15.32,broken clouds
40,Cape Town,ZA,-33.93,18.42,69.39,38,0,8.05,clear sky
41,Hasaki,JP,35.73,140.83,79.29,77,0,5.12,clear sky
42,Hilo,US,19.73,-155.09,86.29,73,75,12.66,broken clouds
43,Hermanus,ZA,-34.42,19.23,60.76,53,0,8.72,clear sky
44,Georgetown,MY,5.41,100.34,80.53,95,20,1.14,few clouds
45,Olafsvik,IS,64.89,-23.71,50.92,89,100,3.11,overcast clouds
46,Rikitea,PF,-23.12,-134.97,68.04,85,100,12.93,heavy intensity rain
47,Khatanga,RU,71.97,102.50,49.95,50,82,6.71,broken clouds
48,Dikson,RU,73.51,80.55,32.72,98,100,0.85,overcast clouds
49,Kodiak,US,57.79,-152.41,60.31,72,100,14.97,overcast clouds
50,Tortoli,IT,39.93,9.66,82.22,89,0,8.05,clear sky
51,Chimbote,PE,-9.09,-78.58,64.49,79,12,10.42,few clouds
52,Ushuaia,AR,-54.80,-68.30,31.66,74,0,4.61,clear sky
53,Chokurdakh,RU,70.63,147.92,52.65,41,20,7.11,few clouds
54,Khachrod,IN,23.42,75.28,78.6,80,100,9.13,moderate rain
55,Baruun-Urt,MN,46.68,113.28,67.86,63,78,5.3,broken clouds
56,Broome,US,42.25,-75.83,87.19,49,0,8.05,clear sky
57,Sao Raimundo Nonato,BR,-9.02,-42.70,77.11,38,6,4.21,clear sky
58,Mount Gambier,AU,-37.83,140.77,49.17,70,100,6.29,overcast clouds
59,Aripuana,BR,-9.17,-60.63,79.45,53,41,1.1,scattered clouds
60,Las Choapas,MX,17.93,-94.08,84.81,78,90,9.89,overcast clouds
61,Coquimbo,CL,-29.95,-71.34,55.13,87,75,10.36,broken clouds
62,Hailar,CN,49.20,119.70,67.8,67,11,4.94,few clouds
63,Inirida,CO,3.87,-67.92,78.6,91,33,1.72,light rain
64,Thinadhoo,MV,0.53,72.93,82.6,70,96,4.34,overcast clouds
65,Yellowknife,CA,62.46,-114.35,63.12,34,75,9.22,broken clouds
66,Bhinmal,IN,25.00,72.25,86.02,73,100,14.92,overcast clouds
67,Vaini,TO,-21.20,-175.20,75.36,88,75,9.22,broken clouds
68,Bungu,TZ,-7.63,39.06,66.97,93,43,3.94,light rain
69,Faanui,PF,-16.48,-151.75,79.03,74,25,22.03,light rain
70,Saint-Francois,FR,46.42,3.91,55.42,99,100,3.44,overcast clouds
71,Jumla,NP,29.27,82.18,63.45,97,100,2.15,light rain
72,Kostrzyn,PL,52.40,17.23,73.81,77,12,1.01,few clouds
73,Kapaa,US,22.08,-159.32,82.72,71,75,17.27,broken clouds
74,Avarua,CK,-21.21,-159.78,77.05,88,75,14.97,moderate rain
75,Tessalit,ML,20.20,1.01,94.03,20,52,11.54,broken clouds
76,Thompson,CA,55.74,-97.86,50.16,66,75,16.11,light intensity shower rain
77,Lorengau,PG,-2.02,147.27,81.77,79,76,17.16,broken clouds
78,Leningradskiy,RU,69.38,178.42,43.2,79,49,5.23,scattered clouds
79,Villa Carlos Paz,AR,-31.42,-64.50,56.39,24,3,5.01,clear sky
80,Punta Arenas,CL,-53.15,-70.92,35.71,87,0,4.61,clear sky
81,Upernavik,GL,72.79,-56.15,38.95,92,100,4.61,overcast clouds
82,Vila Franca Do Campo,PT,37.72,-25.43,66.61,84,41,3.15,scattered clouds
83,Port Alfred,ZA,-33.59,26.89,63.1,44,0,10.33,clear sky
84,Port Elizabeth,ZA,-33.92,25.57,52.09,76,0,3.44,clear sky
85,Baleshwar,IN,21.49,86.93,83.77,80,100,6.89,overcast clouds
86,Souillac,MU,-20.52,57.52,68.38,88,75,5.75,light rain
87,Arlit,NE,18.74,7.39,93.16,9,12,9.93,few clouds
88,Emmett,US,43.87,-116.50,94.55,17,0,1.99,clear sky
89,Quatre Cocos,MU,-20.21,57.76,68.11,74,84,17.07,light rain
90,Fortuna,US,40.60,-124.16,66.85,84,100,0.0,overcast clouds
91,Rocha,UY,-34.48,-54.33,44.44,84,34,3.67,scattered clouds
92,Maniitsoq,GL,65.42,-52.90,43.32,83,100,14.94,overcast clouds
93,Geraldton,AU,-28.77,114.60,54.01,62,0,20.71,clear sky
94,Jiangyou,CN,31.77,104.72,72.82,76,60,4.36,broken clouds
95,Tiksi,RU,71.69,128.87,38.86,70,31,4.56,scattered clouds
96,Saskylakh,RU,71.92,114.08,47.68,57,45,9.01,scattered clouds
97,Saint George,US,37.10,-113.58,103.62,15,0,11.01,clear sky
98,Lebu,CL,-37.62,-73.65,47.01,88,100,24.4,moderate rain
99,Villanueva De La Serena,ES,38.98,-5.80,71.17,26,3,5.79,clear sky
100,Gladstone,AU,-23.85,151.25,64.33,88,100,5.75,overcast clouds
101,Manicore,BR,-5.81,-61.30,89.55,51,0,2.3,clear sky
102,Tubuala,PA,9.52,-79.03,81.19,83,99,10.76,light rain
103,Ibra,OM,22.69,58.53,83.97,65,100,4.09,overcast clouds
104,Cherskiy,RU,68.75,161.30,55.83,44,38,6.73,scattered clouds
105,Santa Cruz,BO,-17.80,-63.17,80.06,53,20,17.27,few clouds
106,Goure,NE,13.98,10.27,90.73,35,63,3.74,broken clouds
107,Pochutla,MX,15.74,-96.47,89.82,63,91,5.41,overcast clouds
108,Qaanaaq,GL,77.48,-69.36,40.41,70,100,4.36,overcast clouds
109,Victoria,HK,22.29,114.16,81.32,89,100,8.99,moderate rain
110,Tasiilaq,GL,65.61,-37.64,38.97,86,88,2.62,overcast clouds
111,Los Llanos De Aridane,ES,28.66,-17.92,65.95,88,75,19.57,broken clouds
112,Cidreira,BR,-30.18,-50.21,55.8,77,0,5.88,clear sky
113,Lashio,MM,22.93,97.75,68.95,100,100,0.76,light rain
114,Batagay-Alyta,RU,67.80,130.41,58.26,57,98,6.8,overcast clouds
115,Dunedin,NZ,-45.87,170.50,46.8,44,36,3.0,scattered clouds
116,Kieta,PG,-6.22,155.63,80.64,84,38,6.42,light rain
117,Vila Velha,BR,-20.33,-40.29,71.94,84,40,10.36,scattered clouds
118,Sawakin,SD,19.11,37.33,87.76,45,1,8.3,clear sky
119,Makakilo City,US,21.35,-158.09,82.72,58,20,20.71,few clouds
120,Grindavik,IS,63.84,-22.43,55.35,93,100,6.91,light rain
121,Racale,IT,39.96,18.09,76.87,71,0,6.91,clear sky
122,Bafra,TR,41.57,35.91,66.24,87,51,4.72,broken clouds
123,Shetpe,KZ,44.17,52.12,65.1,45,6,9.19,clear sky
124,Castro,BR,-24.79,-50.01,51.01,65,0,2.89,clear sky
125,Arman,RU,59.70,150.17,54.5,90,100,4.18,overcast clouds
126,North Bend,US,43.41,-124.22,73.24,83,0,14.97,clear sky
127,Sao Joao Da Barra,BR,-21.64,-41.05,71.69,81,1,9.84,clear sky
128,Rio Grande,BR,-32.03,-52.10,59.11,85,56,9.53,broken clouds
129,Katsuura,JP,35.13,140.30,78.42,84,0,9.57,clear sky
130,Mocuba,MZ,-16.84,36.99,62.87,98,59,3.49,broken clouds
131,Ferme-Neuve,CA,46.70,-75.45,70.92,51,99,10.94,overcast clouds
132,Leshan,CN,29.56,103.76,73.02,74,100,2.75,overcast clouds
133,Chulman,RU,56.85,124.91,68.76,81,84,5.64,broken clouds
134,Kitakyushu,JP,33.83,130.83,79.34,87,75,8.05,broken clouds
135,Ixtlan Del Rio,MX,21.03,-104.37,88.3,39,68,7.29,broken clouds
136,Dingle,PH,11.00,122.67,76.84,88,100,7.7,overcast clouds
137,Half Moon Bay,US,37.46,-122.43,77.81,72,100,17.27,mist
138,Bosobolo,CD,4.18,19.90,70.36,95,100,0.45,light rain
139,The Valley,AI,18.22,-63.06,85.86,70,40,16.11,scattered clouds
140,Berdigestyakh,RU,62.10,126.70,62.78,68,96,2.68,overcast clouds
141,Bandiagara,ML,14.35,-3.61,91.13,34,85,8.57,overcast clouds
142,Naze,JP,28.37,129.48,77.92,84,59,15.48,light rain
143,Korla,CN,41.76,86.15,82.74,26,27,3.36,scattered clouds
144,Muros,ES,42.78,-9.06,59.09,87,3,5.79,clear sky
145,Chuy,UY,-33.70,-53.46,49.03,82,87,7.72,overcast clouds
146,Texarkana,US,33.43,-94.05,93.42,46,0,0.0,clear sky
147,Samarai,PG,-10.62,150.67,81.57,83,97,16.22,overcast clouds
148,Hambantota,LK,6.12,81.12,77.34,83,20,4.61,few clouds
149,Bredasdorp,ZA,-34.53,20.04,56.16,46,0,4.88,clear sky
150,Basoko,CD,1.24,23.62,72.39,87,55,3.47,broken clouds
151,San Patricio,US,28.02,-97.52,95.16,52,56,16.78,broken clouds
152,Jalu,LY,29.03,21.55,89.22,25,0,7.29,clear sky
153,Haines Junction,CA,60.75,-137.51,67.95,45,27,4.61,scattered clouds
154,Mecca,SA,21.43,39.83,88.11,22,3,7.25,clear sky
155,Tuatapere,NZ,-46.13,167.68,41.54,88,80,11.23,light rain
156,Saldanha,ZA,-33.01,17.94,55.45,45,0,22.37,clear sky
157,Mount Isa,AU,-20.73,139.50,51.57,100,100,10.36,light rain
158,Yagodnoye,RU,62.55,149.67,70.9,47,64,4.88,broken clouds
159,Port Moresby,PG,-9.44,147.18,72.82,94,20,3.44,haze
160,Nanortalik,GL,60.14,-45.24,43.36,77,84,10.38,broken clouds
161,Oulainen,FI,64.27,24.80,62.82,55,0,3.83,clear sky
162,Longyearbyen,SJ,78.22,15.64,48.04,81,75,21.85,light intensity drizzle
163,Salalah,OM,17.02,54.09,80.44,87,100,9.24,overcast clouds
164,Carlos Chagas,BR,-17.70,-40.77,71.78,61,11,12.91,few clouds
165,Qaqortoq,GL,60.72,-46.03,44.91,73,93,1.7,overcast clouds
166,New Norfolk,AU,-42.78,147.06,38.7,86,11,1.01,few clouds
167,Mahebourg,MU,-20.41,57.70,68.29,88,75,5.75,broken clouds
168,Yarmouth,US,41.71,-70.23,79.27,51,0,6.91,clear sky
169,Hurghada,EG,27.26,33.81,89.64,23,0,5.75,clear sky
170,Rochegda,RU,62.80,43.25,48.07,64,37,2.71,scattered clouds
171,Dicabisagan,PH,17.08,122.42,80.33,83,100,8.81,overcast clouds
172,Banyo,CM,6.75,11.82,65.62,96,100,2.48,overcast clouds
173,Vao,NC,-22.67,167.48,69.1,69,100,15.97,overcast clouds
174,Serowe,BW,-22.38,26.72,54.45,72,85,7.63,overcast clouds
175,Iralaya,HN,15.00,-83.23,82.85,73,99,10.07,overcast clouds
176,Pahrump,US,36.21,-115.98,103.24,12,0,5.99,clear sky
177,Talara,PE,-4.58,-81.27,74.16,60,0,16.11,clear sky
178,Okhotsk,RU,59.38,143.30,58.71,87,100,3.65,overcast clouds
179,Asau,RO,46.43,26.40,63.52,73,64,3.2,broken clouds
180,Alofi,NU,-19.06,-169.92,80.49,78,75,9.22,broken clouds
181,Mpulungu,ZM,-8.76,31.11,68.68,64,6,13.56,clear sky
182,Rochester,US,43.15,-77.62,87.94,53,75,13.8,broken clouds
183,Hofn,IS,64.25,-15.21,51.78,89,91,4.97,overcast clouds
184,Noyabrsk,RU,63.20,75.45,55.56,62,95,23.98,overcast clouds
185,Khasan,RU,42.43,130.64,59.74,97,100,4.61,overcast clouds
186,West Mifflin,US,40.36,-79.87,90.3,36,0,8.05,clear sky
187,Acarau,BR,-2.89,-40.12,78.98,81,3,15.26,clear sky
188,Wahiawa,US,21.50,-158.02,80.92,60,20,16.11,few clouds
189,Saint-Philippe,RE,-21.36,55.77,66.22,69,68,10.04,broken clouds
190,Saint-Georges,GD,12.06,-61.75,83.88,74,20,14.97,few clouds
191,Lata,PT,40.16,-8.33,61.07,92,0,3.87,clear sky
192,Ancud,CL,-41.87,-73.82,44.22,85,100,10.54,overcast clouds
193,Pavlogradka,RU,54.20,73.56,48.13,82,28,11.14,scattered clouds
194,Pevek,RU,69.70,170.31,33.58,97,100,0.74,light snow
195,Walvis Bay,NA,-22.96,14.51,76.15,29,38,6.91,scattered clouds
196,Ambon,ID,-3.70,128.18,76.23,16,20,3.44,few clouds
197,Arraial Do Cabo,BR,-22.97,-42.03,67.96,77,40,5.75,scattered clouds
198,Barrow,US,71.29,-156.79,53.62,66,0,11.5,clear sky
199,Shimoda,JP,34.67,138.95,82.11,84,6,6.49,clear sky
200,Port Macquarie,AU,-31.43,152.92,50.9,75,100,4.88,overcast clouds
201,Butzow,DE,53.85,11.98,68.2,97,19,7.94,few clouds
202,Ahipara,NZ,-35.17,173.17,60.64,79,88,10.4,overcast clouds
203,Merauke,ID,-8.47,140.33,77.45,91,37,9.08,scattered clouds
204,Esperance,AU,-33.87,121.90,48.99,82,0,8.21,clear sky
205,Tuktoyaktuk,CA,69.45,-133.04,62.6,63,75,8.05,broken clouds
206,Varadero,CU,23.15,-81.25,84.45,74,23,16.67,few clouds
207,Ust-Kalmanka,RU,52.12,83.31,52.48,72,0,4.9,clear sky
208,Norman Wells,CA,65.28,-126.83,71.64,49,20,9.22,few clouds
209,Nikolskoye,RU,59.70,30.79,63.88,50,7,0.27,clear sky
210,Markivka,UA,49.52,39.57,59.27,79,6,4.41,clear sky
211,Nichinan,JP,31.60,131.37,74.88,85,5,3.58,clear sky
212,Batemans Bay,AU,-35.72,150.18,51.1,78,100,7.72,overcast clouds
213,Chara,RU,56.91,118.26,74.7,60,26,0.58,scattered clouds
214,Taoudenni,ML,22.68,-3.98,104.61,9,54,5.66,broken clouds
215,Meulaboh,ID,4.14,96.13,74.59,79,100,4.81,overcast clouds
216,Cabra,ES,37.47,-4.44,75.65,35,52,2.8,broken clouds
217,Makarov,RU,48.63,142.80,58.14,85,26,3.06,scattered clouds
218,Chardara,KZ,41.25,67.97,75.25,24,0,10.87,clear sky
219,Ulladulla,AU,-35.35,150.47,51.89,78,96,7.96,overcast clouds
220,Kosh-Agach,RU,50.00,88.67,54.77,69,87,4.45,overcast clouds
221,Kahta,TR,37.79,38.62,81.77,44,0,3.29,clear sky
222,Svetlaya,RU,46.54,138.33,58.19,93,98,6.26,overcast clouds
223,Mandiana,GN,10.63,-8.68,71.64,82,100,8.7,overcast clouds
224,Bubaque,GW,11.28,-15.83,81.39,79,32,10.18,scattered clouds
225,Machali,CL,-34.18,-70.67,65.48,42,75,5.75,haze
226,Pisco,PE,-13.70,-76.22,64.45,72,0,9.22,clear sky
227,Impfondo,CG,1.64,18.07,72.64,83,71,1.07,broken clouds
228,Muroto,JP,33.28,134.15,79.02,80,0,1.19,clear sky
229,Rosetta,EG,31.40,30.42,75.11,79,0,6.82,clear sky
230,Opuwo,NA,-18.06,13.84,56.55,49,90,6.82,overcast clouds
231,Wilmington,US,34.23,-77.94,84.11,72,0,8.05,clear sky
232,Pontes E Lacerda,BR,-15.23,-59.34,76.77,44,37,2.39,scattered clouds
233,East London,ZA,-33.02,27.91,61.27,41,0,6.4,clear sky
234,San Blas,MX,21.52,-105.27,86.86,67,37,9.89,scattered clouds
235,Vila,PT,42.03,-8.16,51.69,77,1,2.62,clear sky
236,Kitob,UZ,39.08,66.83,77.77,28,0,8.55,clear sky
237,Capreol,CA,46.71,-80.92,69.55,77,100,18.41,overcast clouds
238,Kalabo,ZM,-14.97,22.68,57.69,52,70,4.68,broken clouds
239,Tairua,NZ,-37.02,175.85,58.24,81,60,9.89,broken clouds
240,Dhidhdhoo,MV,6.88,73.10,82.33,76,100,20.38,light rain
241,Boende,CD,-0.22,20.87,72.79,83,48,1.99,scattered clouds
242,Nurota,UZ,40.56,65.69,76.8,18,0,9.37,clear sky
243,Riverton,US,40.52,-111.94,93.7,31,75,5.75,light rain
244,Cockburn Town,TC,21.46,-71.14,85.96,62,40,18.41,scattered clouds
245,Paamiut,GL,61.99,-49.67,41.16,83,98,14.88,overcast clouds
246,Zhigansk,RU,66.77,123.37,54.68,81,46,9.75,scattered clouds
247,Labuhan,ID,-6.88,112.21,74.97,89,78,8.59,broken clouds
248,Iqaluit,CA,63.75,-68.51,46.13,81,100,3.44,overcast clouds
249,Provideniya,RU,64.38,-173.30,53.71,82,100,8.99,overcast clouds
250,Zagare,LT,56.36,23.25,68.43,95,91,6.71,overcast clouds
251,Brae,GB,60.40,-1.35,54.91,95,95,6.87,overcast clouds
252,Morwell,AU,-38.23,146.40,42.4,86,100,0.98,overcast clouds
253,Port Blair,IN,11.67,92.75,80.64,89,40,2.3,mist
254,Chapais,CA,49.78,-74.85,67.78,44,100,14.0,overcast clouds
255,Oussouye,SN,12.48,-16.55,84.38,78,11,7.45,few clouds
256,Tombouctou,ML,20.00,-3.00,97.47,15,4,18.66,clear sky
257,Kampot,KH,10.62,104.18,78.85,83,100,8.12,overcast clouds
258,Sitka,US,57.05,-135.33,60.69,63,75,8.05,broken clouds
259,Severo-Yeniseyskiy,RU,60.37,93.04,52.65,95,1,3.27,clear sky
260,Casa Nova,BR,-9.42,-41.13,80.69,41,9,11.52,clear sky
261,Flinders,AU,-34.58,150.86,52.18,85,100,1.99,light rain
262,Yining,CN,29.04,114.56,75.4,96,15,2.06,few clouds
263,Twin Falls,US,42.35,-114.64,82.92,16,35,8.77,scattered clouds
264,Dabhol,IN,17.60,73.17,77.74,90,100,7.87,moderate rain
265,Kamenka,RU,51.32,42.77,54.93,77,6,6.55,clear sky
266,Aksu,CN,41.12,80.26,80.1,30,26,3.24,scattered clouds
267,Beringovskiy,RU,63.05,179.32,43.38,98,100,8.9,light rain
268,Pontalina,BR,-17.52,-49.45,71.78,35,96,3.89,overcast clouds
269,Silopi,TR,37.25,42.47,84.11,15,0,5.88,clear sky
270,Cavalcante,BR,-13.80,-47.46,68.34,37,35,4.29,scattered clouds
271,Kiunga,PG,-6.12,141.29,74.62,96,35,0.51,scattered clouds
272,San Quintin,MX,30.48,-115.95,74.5,64,1,15.21,clear sky
273,Novyy Urengoy,RU,66.08,76.63,50.94,68,0,18.88,clear sky
274,Clyde River,CA,70.47,-68.59,39.43,70,0,12.66,clear sky
275,Carroll,US,39.55,-77.02,90.91,39,0,3.0,clear sky
276,Puerto Escondido,MX,15.85,-97.07,86.38,68,98,5.7,overcast clouds
277,Edeia,BR,-17.34,-49.93,73.11,35,85,3.33,overcast clouds
278,Deputatskiy,RU,69.30,139.90,49.5,66,99,2.62,overcast clouds
279,Biak,ID,-0.91,122.88,75.16,87,17,1.01,few clouds
280,Bambous Virieux,MU,-20.34,57.76,68.25,88,75,5.75,light rain
281,Yaan,NG,7.38,8.57,74.26,89,99,9.71,overcast clouds
282,Zhenlai,CN,45.85,123.30,76.12,62,50,3.58,scattered clouds
283,Magadan,RU,59.57,150.80,52.65,94,100,3.31,light rain
284,Kendari,ID,-3.94,122.50,73.96,94,36,0.76,scattered clouds
285,Kruisfontein,ZA,-34.00,24.73,57.54,33,0,8.1,clear sky
286,Oranjemund,NA,-28.55,16.43,66.87,36,7,3.67,clear sky
287,Hervey Bay,AU,-25.30,152.85,63.01,97,100,8.99,overcast clouds
288,Bagdarin,RU,54.43,113.60,65.66,71,5,2.28,clear sky
289,Orlik,RU,52.52,99.83,56.86,61,18,2.73,few clouds
290,Husavik,IS,66.04,-17.34,50.16,90,83,5.41,broken clouds
291,Lompoc,US,34.64,-120.46,87.78,71,0,17.27,clear sky
292,Svetlyy,RU,54.67,20.13,68.05,96,95,12.03,light rain
293,Prince Rupert,CA,54.32,-130.32,59.09,83,100,8.05,overcast clouds
294,Mbini,GQ,1.57,9.61,75.38,86,99,6.8,overcast clouds
295,Rosignano Marittimo,IT,43.41,10.47,74.48,75,0,1.5,clear sky
296,Tura,IN,25.52,90.22,72.57,96,34,5.57,scattered clouds
297,Hvide Sande,DK,56.00,8.13,65.08,85,6,10.0,clear sky
298,Boa Vista,BR,2.82,-60.67,89.58,51,40,2.3,scattered clouds
299,Tual,ID,-5.67,132.75,81.25,78,70,8.12,light rain
300,Aguimes,ES,27.91,-15.45,68.67,62,40,25.01,scattered clouds
301,Ouadda,CF,8.08,22.40,66.96,96,91,0.89,light rain
302,Kirakira,SB,-10.45,161.92,82.67,77,59,16.37,light rain
303,Mbandaka,CD,0.05,18.26,73.87,74,67,1.54,broken clouds
304,San Juan Nepomuceno,CO,9.95,-75.08,83.59,77,27,2.89,light rain
305,Petropavlovsk-Kamchatskiy,RU,53.05,158.65,72.19,46,0,15.66,clear sky
306,Ponta Do Sol,PT,32.67,-17.10,68.0,70,24,6.85,few clouds
307,Matelandia,BR,-25.24,-54.00,56.5,93,0,2.75,clear sky
308,Njombe,TZ,-9.33,34.77,49.62,96,85,6.06,overcast clouds
309,Butembo,CD,0.15,29.28,57.88,82,27,2.62,scattered clouds
310,Agira,IT,37.66,14.52,77.92,57,6,3.74,clear sky
311,Rafaela,AR,-31.25,-61.49,57.0,41,2,7.2,clear sky
312,Marsa Matruh,EG,31.35,27.25,77.2,78,0,9.22,clear sky
313,Slave Lake,CA,55.28,-114.77,67.98,73,0,4.61,clear sky
314,Alekseyevsk,RU,57.84,108.35,61.65,94,0,0.69,clear sky
315,Matamoros,MX,25.53,-103.25,92.43,24,13,9.62,few clouds
316,Romanovo,RU,52.62,81.23,50.02,72,0,6.22,clear sky
317,Saqqez,IR,36.25,46.27,66.6,37,0,1.88,clear sky
318,Kuusamo,FI,65.97,29.18,66.24,88,0,1.14,clear sky
319,Nokaneng,BW,-19.67,22.27,59.9,48,89,4.88,overcast clouds
320,Marolambo,MG,-20.05,48.12,58.57,95,75,2.35,broken clouds
321,San Carlos De Bariloche,AR,-41.15,-71.31,38.95,56,75,1.14,broken clouds
322,Akureyri,IS,65.68,-18.09,51.73,87,75,10.36,broken clouds
323,Leh,IN,34.17,77.58,65.97,29,100,6.51,overcast clouds
324,Isangel,VU,-19.55,169.27,73.51,88,75,4.61,broken clouds
325,Uchiza,PE,-8.46,-76.46,80.83,62,5,0.63,clear sky
326,Inhambane,MZ,-23.86,35.38,65.98,71,99,9.82,overcast clouds
327,Aurillac,FR,44.92,2.45,50.88,98,100,4.61,overcast clouds
328,Cap Malheureux,MU,-19.98,57.61,65.46,81,63,1.99,light rain
329,Stornoway,GB,58.21,-6.39,54.93,92,75,10.36,broken clouds
330,Hirara,JP,24.80,125.28,77.27,88,40,9.22,scattered clouds
331,Kaitangata,NZ,-46.28,169.85,42.42,78,82,15.84,light rain
332,Eyl,SO,7.98,49.82,80.06,58,98,26.6,overcast clouds
333,Ola,RU,59.58,151.28,50.9,97,100,2.82,light rain
334,Sergeyevka,KZ,53.88,67.42,54.55,71,95,5.23,overcast clouds
335,Mackay,AU,-21.15,149.20,67.68,95,100,10.63,moderate rain
336,Maceio,BR,-9.67,-35.74,76.44,83,75,8.05,broken clouds
337,Anito,PH,12.45,125.29,77.81,91,100,8.41,overcast clouds
338,Caravelas,BR,-17.71,-39.25,71.02,88,3,5.3,clear sky
339,Killybegs,IE,54.63,-8.45,53.02,92,91,7.07,overcast clouds
340,Hami,CN,42.80,93.45,84.24,13,0,7.9,clear sky
341,Cravinhos,BR,-21.34,-47.73,74.12,47,0,3.2,clear sky
342,Namibe,AO,-15.20,12.15,67.21,91,25,4.85,scattered clouds
343,Seoul,KR,37.57,126.98,74.77,97,75,4.61,broken clouds
344,Matagami,CA,49.75,-77.63,53.71,94,100,23.02,moderate rain
345,Talgar,KZ,43.30,77.24,73.56,41,75,4.47,light rain
346,Ode,NG,7.79,5.71,69.39,97,99,8.86,overcast clouds
347,Xinye,CN,32.52,112.35,74.07,86,66,5.64,broken clouds
348,Pareora,NZ,-44.49,171.21,37.18,89,2,6.55,clear sky
349,Buchanan,LR,5.88,-10.05,76.82,85,64,9.75,light rain
350,Mandalgovi,MN,45.76,106.27,68.88,44,58,6.51,broken clouds
351,Sharlyk,RU,52.92,54.75,54.68,70,94,3.8,overcast clouds
352,Mirnyy,RU,62.54,113.96,60.24,72,1,2.62,clear sky
353,Arroyo,ES,41.61,-4.80,60.08,59,0,12.66,clear sky
354,Ribera,IT,37.50,13.26,83.26,38,76,6.4,broken clouds
355,Celestun,MX,20.87,-90.40,82.36,74,38,13.8,scattered clouds
356,Erdenet,MN,49.03,104.08,59.83,85,66,1.12,broken clouds
357,Ewo,CG,-0.87,14.82,77.83,52,84,0.6,broken clouds
358,Kathu,TH,7.92,98.33,86.76,82,100,13.24,overcast clouds
359,Srandakan,ID,-7.94,110.25,73.72,89,35,6.69,scattered clouds
360,Deer Lake,CA,49.17,-57.43,73.26,53,100,6.91,overcast clouds
361,Masuguru,TZ,-11.37,38.42,67.59,73,2,3.87,clear sky
362,Sur,OM,22.57,59.53,87.37,69,100,14.09,overcast clouds
363,Jega,NG,12.22,4.38,85.32,50,66,10.25,broken clouds
364,Santa Fe,AR,-31.63,-60.70,61.0,53,2,1.99,clear sky
365,Yakima,US,46.47,-120.67,85.55,31,0,4.61,clear sky
366,Yertsevo,RU,60.80,40.09,47.5,71,5,3.53,clear sky
367,Sola,VU,-13.88,167.55,81.27,89,46,5.75,scattered clouds
368,Atbasar,KZ,51.80,68.33,51.48,71,3,4.59,clear sky
369,Madang,PG,-5.22,145.80,78.01,87,28,4.14,scattered clouds
370,Kuryk,KZ,43.20,51.65,73.45,33,0,12.46,clear sky
371,Port Lincoln,AU,-34.73,135.87,54.97,78,88,10.74,light rain
372,Yatou,CN,37.15,122.38,72.28,95,100,11.1,overcast clouds
373,San Angelo,US,31.46,-100.44,100.94,22,5,1.99,clear sky
374,Belaya Gora,RU,68.53,146.42,57.79,55,100,6.62,overcast clouds
375,Narsaq,GL,60.92,-46.05,47.28,70,96,2.51,overcast clouds
376,Mercedes,AR,-34.65,-59.43,54.03,39,10,5.26,clear sky
377,Luwuk,ID,-0.95,122.79,76.12,88,15,2.26,few clouds
378,Kismayo,SO,-0.36,42.55,76.28,76,27,19.39,scattered clouds
379,Lingao,CN,19.91,109.69,80.94,86,100,14.79,light rain
380,Voznesenye,RU,61.01,35.48,60.42,78,50,3.65,scattered clouds
381,Altay,CN,47.87,88.12,66.87,47,91,2.51,overcast clouds
382,Kavaratti,IN,10.57,72.64,82.78,79,100,22.46,light rain
383,Bekescsaba,HU,46.68,21.10,75.94,60,1,1.01,clear sky
384,Ranot,TH,7.78,100.32,79.72,82,100,9.78,overcast clouds
385,Buala,SB,-8.14,159.59,81.45,82,87,12.77,moderate rain
386,Konevo,RU,62.12,39.32,50.63,67,62,2.08,broken clouds
387,Rapid Valley,US,44.06,-103.15,83.71,33,40,12.66,scattered clouds
388,Santa Rita,BR,-7.11,-34.98,77.67,88,20,9.22,few clouds
389,Daru,PG,-9.08,143.21,79.84,89,4,8.86,clear sky
390,Quechultenango,MX,17.42,-99.22,83.71,64,47,5.55,light rain
391,Sangar,RU,63.92,127.47,61.9,72,63,2.51,broken clouds
392,Biograd Na Moru,HR,43.94,15.45,77.76,72,0,3.58,clear sky
393,Touros,BR,-5.20,-35.46,77.07,86,2,11.68,clear sky
394,Nacala,MZ,-14.54,40.67,66.67,78,0,6.38,clear sky
395,Faya,SA,18.39,42.45,75.31,33,71,4.36,broken clouds
396,Neiafu,TO,-18.65,-173.98,81.28,83,75,10.36,broken clouds
397,Puerto Ayacucho,VE,5.66,-67.62,79.65,85,54,3.74,moderate rain
398,Gorey,IE,52.67,-6.29,52.23,90,62,7.2,broken clouds
399,Russell,US,32.35,-85.20,87.08,55,0,4.61,clear sky
400,Limao,PH,7.08,125.67,76.68,100,40,3.44,scattered clouds
401,Klaksvik,FO,62.23,-6.59,52.72,99,99,11.95,overcast clouds
402,Itarema,BR,-2.92,-39.92,78.89,80,1,14.9,clear sky
403,Nadym,RU,65.53,72.52,46.11,77,37,18.45,scattered clouds
404,Timbiqui,CO,2.77,-77.67,78.67,87,77,5.77,moderate rain
405,Elista,RU,46.31,44.26,68.52,24,100,6.71,overcast clouds
406,Adeje,ES,28.12,-16.73,69.1,79,75,14.97,broken clouds
407,Cintalapa,MX,16.70,-93.73,78.8,86,81,6.02,broken clouds
408,Naryan-Mar,RU,67.67,53.09,46.27,64,74,4.81,broken clouds
409,La Crosse,US,43.80,-91.24,82.85,76,96,1.99,overcast clouds
410,Hajnowka,PL,52.74,23.58,70.68,82,90,7.78,overcast clouds
411,Bekhtery,UA,46.25,32.29,72.9,72,45,5.48,scattered clouds
412,Bandarbeyla,SO,9.49,50.81,81.79,58,100,29.75,overcast clouds
413,Kukushtan,RU,57.65,56.50,51.42,89,79,11.01,broken clouds
414,Margate,GB,51.38,1.39,57.31,82,25,4.0,scattered clouds
415,Mayo,US,38.89,-76.51,92.17,58,0,1.99,clear sky
416,Vardo,NO,70.37,31.11,48.18,93,84,20.71,broken clouds
417,Lamar,US,33.67,-95.58,97.65,38,20,6.91,few clouds
418,Birao,CF,10.28,22.79,72.99,82,90,2.37,light rain
419,Koplik,AL,42.21,19.44,80.2,71,6,2.57,clear sky
420,Port Hardy,CA,50.70,-127.42,62.78,72,75,4.61,broken clouds
421,Moses Lake,US,47.13,-119.28,84.88,23,0,6.91,clear sky
422,Kualakapuas,ID,-3.01,114.39,72.21,99,100,1.88,overcast clouds
423,Onalaska,US,43.88,-91.24,80.65,82,96,4.0,overcast clouds
424,Jiayuguan,CN,39.82,98.30,69.57,32,39,2.46,scattered clouds
425,Plettenberg Bay,ZA,-34.05,23.37,62.04,43,0,8.28,clear sky
426,Nicoya,CR,10.15,-85.45,81.48,79,100,7.49,light rain
427,Batagay,RU,67.63,134.63,53.29,84,100,1.95,light rain
428,Ilulissat,GL,69.22,-51.10,40.17,87,61,6.67,broken clouds
429,Tigil,RU,57.80,158.67,57.43,68,100,16.28,overcast clouds
430,Ipixuna,BR,-1.76,-48.80,78.78,80,77,5.37,broken clouds
431,Kawalu,ID,-7.38,108.21,68.41,95,59,1.7,broken clouds
432,Kutum,SD,14.20,24.67,80.17,42,58,10.33,broken clouds
433,Quebec,CA,46.81,-71.21,72.88,47,40,9.22,scattered clouds
434,Kimberley,ZA,-28.73,24.76,40.69,70,0,3.44,clear sky
435,Andrychow,PL,49.85,19.34,77.72,66,6,2.75,clear sky
436,Bud,US,39.45,-86.18,92.41,42,1,6.15,clear sky
437,Matara,LK,5.95,80.54,80.42,83,39,14.54,scattered clouds
438,West Fargo,US,46.88,-96.90,78.85,52,18,13.8,few clouds
439,Canico,PT,32.63,-16.85,68.0,78,40,11.5,scattered clouds
440,Ixtapa,MX,20.70,-105.20,87.22,74,64,7.0,broken clouds
441,Panaba,MX,21.28,-88.27,91.62,49,60,15.14,broken clouds
442,Taltal,CL,-25.40,-70.48,56.77,81,20,0.47,few clouds
443,Touba,CI,8.28,-7.68,67.44,96,98,3.76,overcast clouds
444,Carbonia,IT,39.17,8.52,79.02,63,84,4.12,broken clouds
445,Seddon,AU,-37.81,144.89,48.09,88,75,1.99,broken clouds
446,Rovaniemi,FI,66.50,25.72,71.01,78,0,3.44,clear sky
447,Kahului,US,20.89,-156.47,83.97,80,98,17.0,overcast clouds
448,Yulara,AU,-25.24,130.99,44.11,81,0,12.73,clear sky
449,Derzhavinsk,KZ,51.10,66.32,60.55,48,100,5.57,overcast clouds
450,Sheltozero,RU,61.37,35.37,59.7,79,31,5.5,scattered clouds
451,Nabire,ID,-3.37,135.48,75.88,88,49,2.8,scattered clouds
452,Honningsvag,NO,70.98,25.97,47.95,87,100,2.3,overcast clouds
453,Kars,TR,40.60,43.09,54.59,86,0,3.51,clear sky
454,Canutama,BR,-6.53,-64.38,80.74,57,21,1.23,few clouds
455,Lesogorsk,RU,56.05,99.51,62.47,86,91,1.03,overcast clouds
456,Ahuimanu,US,21.44,-157.84,83.86,67,75,13.8,broken clouds
457,Mana,GF,5.66,-53.78,76.8,89,52,4.36,broken clouds
458,Portsmouth,GB,50.80,-1.09,59.97,92,55,7.0,broken clouds
459,College,US,64.86,-147.80,77.58,45,75,0.0,smoke
460,Bengkulu,ID,-3.80,102.27,72.54,83,96,3.83,overcast clouds
461,Saint Anthony,US,45.02,-93.22,90.86,46,88,3.0,overcast clouds
462,Barra Da Estiva,BR,-13.63,-41.33,64.94,53,25,1.74,scattered clouds
463,Najran,SA,17.49,44.13,90.25,18,93,5.66,overcast clouds
464,Ishigaki,JP,24.34,124.16,82.53,89,40,14.97,scattered clouds
465,Umba,RU,66.69,34.34,54.45,83,99,7.07,overcast clouds
466,Morondava,MG,-20.28,44.28,67.08,73,0,11.32,clear sky
467,Porto Santo,PT,33.07,-16.34,66.58,72,40,14.97,scattered clouds
468,Mamallapuram,IN,12.63,80.17,82.45,65,92,14.05,overcast clouds
469,Krivosheino,RU,57.34,83.93,53.91,82,100,11.05,overcast clouds
470,Zelenogradsk,RU,54.96,20.48,68.05,87,75,11.18,thunderstorm with light rain
471,Xuddur,SO,4.12,43.89,68.88,83,99,19.84,overcast clouds
472,Tilichiki,RU,60.47,166.10,47.35,94,100,3.58,light rain
473,Ripky,UA,51.80,31.08,69.12,85,91,3.69,overcast clouds
474,Hamilton,US,39.18,-84.53,93.83,33,0,9.22,clear sky
475,Recreio,BR,-21.52,-42.47,67.93,63,0,3.96,clear sky
476,Kabalo,CD,-6.05,26.92,75.02,44,24,4.88,few clouds
477,Dudinka,RU,69.41,86.18,49.62,59,15,13.11,few clouds
478,Soto La Marina,MX,23.77,-98.22,92.77,43,55,16.31,broken clouds
479,Gannan,CN,47.91,123.50,70.75,80,6,4.23,clear sky
480,Omboue,GA,-1.57,9.26,70.86,90,36,6.13,scattered clouds
481,Manjacaze,MZ,-24.71,33.88,57.43,82,10,2.89,clear sky
482,Dutlwe,BW,-23.98,23.90,52.52,57,25,9.01,scattered clouds
483,Baykit,RU,61.67,96.37,58.69,97,100,2.68,moderate rain
484,Sayyan,YE,15.17,44.32,67.03,46,99,6.04,overcast clouds
485,Albert,FR,50.00,2.65,54.57,98,0,5.75,clear sky
486,Filadelfia,US,39.95,-75.16,91.22,43,2,3.0,clear sky
487,Alferrarede,PT,39.48,-8.17,63.1,64,0,1.01,clear sky
488,Carballo,ES,43.21,-8.69,58.87,83,22,1.32,few clouds
489,Udachnyy,RU,66.42,112.40,55.45,87,56,0.6,broken clouds
490,Olinda,BR,-8.01,-34.86,76.73,83,75,10.36,broken clouds
491,Jurm,AF,36.86,70.83,72.73,28,0,1.61,clear sky
492,Harper,LR,4.38,-7.72,76.95,79,92,8.59,overcast clouds
493,Beyneu,KZ,45.32,55.20,70.48,32,1,7.83,clear sky
494,Malibu,US,34.01,-118.81,99.41,73,39,8.55,scattered clouds
495,Goito,IT,45.25,10.67,79.66,77,0,7.43,clear sky
496,Alta Floresta,BR,-9.88,-56.09,80.06,42,27,1.79,scattered clouds
497,Fare,PF,-16.70,-151.02,79.29,72,3,21.61,clear sky
498,Vestmannaeyjar,IS,63.44,-20.27,52.45,92,100,8.7,light rain
499,Magnitogorsk,RU,53.42,59.05,52.63,76,75,0.0,broken clouds
500,High Level,CA,58.52,-117.14,57.31,77,100,3.44,light rain
501,Broken Hill,AU,-31.95,141.43,41.74,75,0,10.42,clear sky
502,Mendi,PG,-6.18,143.65,56.61,76,6,2.73,clear sky
503,Gamovo,RU,57.87,56.11,51.42,82,0,13.42,clear sky
504,Belyy Yar,RU,53.60,91.39,64.29,68,0,8.95,moderate rain
505,Svencionys,LT,55.15,26.17,65.79,89,94,5.48,overcast clouds
506,Porto Torres,IT,40.84,8.40,75.38,80,0,2.06,clear sky
507,Fukue,JP,32.69,128.84,77.49,87,3,5.48,clear sky
508,Mareeba,AU,-17.00,145.43,68.72,95,100,3.58,overcast clouds
509,Malanje,AO,-9.54,16.34,62.47,38,5,2.26,clear sky
510,Port-Gentil,GA,-0.72,8.78,75.16,83,20,10.36,few clouds
511,Tignere,CM,7.37,12.65,64.36,93,99,1.86,overcast clouds
512,Camacha,PT,33.08,-16.33,63.82,72,40,14.97,scattered clouds
513,Gisenyi,RW,-1.70,29.26,63.34,77,43,2.91,scattered clouds
514,Lerik,AZ,38.77,48.41,51.44,50,0,3.38,clear sky
515,Goderich,CA,43.75,-81.72,80.92,44,91,19.57,overcast clouds
516,Banda Aceh,ID,5.56,95.32,79.3,69,99,14.07,overcast clouds
517,Usogorsk,RU,63.41,48.69,45.72,64,58,2.71,broken clouds
518,Kita,ML,13.03,-9.49,75.02,75,100,6.51,overcast clouds
519,Hazorasp,UZ,41.32,61.07,73.24,22,0,17.4,clear sky
520,Grand Gaube,MU,-20.01,57.66,68.4,81,66,5.01,broken clouds
521,Talnakh,RU,69.49,88.40,49.21,55,30,7.85,scattered clouds
522,Harrisonville,US,38.65,-94.35,93.33,36,0,8.05,clear sky
523,Falam,MM,22.92,93.68,62.74,97,100,3.24,overcast clouds
524,Sept-Iles,CA,50.20,-66.38,68.0,53,20,14.97,few clouds
525,Dauphin,CA,51.15,-100.05,69.94,35,40,13.8,scattered clouds
526,Beitbridge,ZW,-22.22,30.00,58.93,62,6,8.19,clear sky
527,Cheltenham,GB,51.90,-2.08,56.68,80,100,5.99,overcast clouds
528,Sao Felix Do Xingu,BR,-6.64,-51.99,79.45,54,99,1.1,overcast clouds
529,Mineros,BO,-17.12,-63.23,76.55,47,0,4.54,clear sky
530,Kobryn,BY,52.21,24.36,70.45,76,100,9.55,overcast clouds
531,Namatanai,PG,-3.67,152.43,80.74,80,60,11.3,light rain
532,Podosinovets,RU,60.28,47.07,40.57,81,11,4.83,few clouds
533,Powell,US,40.16,-83.08,90.16,34,0,10.36,clear sky
534,Mundi,IN,22.07,76.50,78.84,83,100,6.78,overcast clouds
535,Baganga,PH,7.57,126.56,78.46,78,91,4.47,overcast clouds
536,Ambalavao,MG,-21.83,46.93,51.58,94,60,4.85,broken clouds
537,Miri,MY,4.41,114.01,75.34,94,40,5.75,moderate rain
538,Luderitz,NA,-26.65,15.16,67.93,40,24,2.35,few clouds
539,Doha,QA,25.29,51.53,94.98,29,0,3.44,clear sky
540,Ulety,RU,51.36,112.48,68.04,65,90,1.45,overcast clouds
541,Rexburg,US,43.83,-111.79,81.0,10,0,8.05,clear sky
542,Bethel,US,41.37,-73.41,87.04,49,19,5.46,few clouds
543,Gorele,TR,41.03,39.00,67.91,91,88,0.85,overcast clouds
544,Dong Hoi,VN,17.48,106.60,78.48,88,100,5.3,light rain
545,Richards Bay,ZA,-28.78,32.04,57.65,69,0,6.71,clear sky
546,Xiaoshi,CN,41.30,124.12,70.16,99,100,4.23,light rain
547,Jibuti,DJ,11.50,42.50,88.93,35,96,7.36,overcast clouds
548,Antofagasta,CL,-23.65,-70.40,60.08,76,1,4.32,clear sky
549,Avera,US,33.19,-82.53,89.65,44,99,6.33,overcast clouds
550,Karasburg,NA,-28.02,18.75,55.69,49,0,18.9,clear sky
551,Sao Sebastiao,BR,-23.76,-45.41,62.28,87,9,4.38,clear sky
552,Acurenam,GQ,1.03,10.65,66.61,99,85,2.66,overcast clouds
553,Praia Da Vitoria,PT,38.73,-27.07,68.76,94,75,11.7,light intensity drizzle
554,Grand Baie,MU,-20.02,57.58,68.47,81,59,5.01,broken clouds
555,Liyang,CN,29.71,118.29,72.27,96,2,1.97,clear sky
556,San Vicente,AR,-26.62,-54.13,50.86,85,0,2.28,clear sky
557,Cabedelo,BR,-6.98,-34.83,77.67,86,6,9.84,clear sky
558,La Ronge,CA,55.10,-105.28,68.22,22,20,14.97,few clouds
559,Chagoda,RU,59.16,35.33,59.5,73,5,3.91,clear sky
560,Lake Cowichan,CA,48.83,-124.05,74.32,55,87,1.97,overcast clouds
561,Viedma,AR,-40.81,-63.00,47.03,38,100,8.39,overcast clouds
562,Vrangel,RU,42.73,133.08,60.28,84,100,9.22,overcast clouds
563,San Ramon,US,37.78,-121.98,82.58,55,0,18.41,clear sky
564,Xingyi,CN,24.19,102.82,61.45,94,100,3.38,overcast clouds
565,Ascension,US,30.22,-90.90,84.99,85,75,4.61,broken clouds
566,Saint-Pierre,RE,-21.34,55.48,66.29,68,100,6.91,overcast clouds
567,Kununurra,AU,-15.77,128.73,60.78,77,100,12.66,overcast clouds
568,Bambanglipuro,ID,-7.95,110.28,73.63,89,35,6.71,scattered clouds
569,Carlsbad,US,33.16,-117.35,98.26,67,0,7.0,clear sky
570,Puerto Del Rosario,ES,28.50,-13.86,71.35,64,75,16.11,broken clouds
571,Kilindoni,TZ,-7.91,39.67,76.51,73,6,19.84,clear sky
572,Kushiro,JP,42.98,144.37,57.83,87,100,6.46,overcast clouds
573,Vilhena,BR,-12.74,-60.15,84.42,39,0,6.91,clear sky
574,Aswan,EG,24.09,32.91,90.7,22,0,13.8,clear sky
575,San Cristobal,VE,7.77,-72.22,77.18,86,100,3.74,overcast clouds
576,Tome,CL,-36.62,-72.95,50.61,73,100,13.53,overcast clouds
577,Peniche,PT,39.36,-9.38,62.29,84,0,20.83,clear sky
578,Beloha,MG,-25.17,45.05,65.19,77,90,12.75,overcast clouds
579,Weyburn,CA,49.67,-103.85,59.22,82,62,16.11,light rain
580,Paulo Afonso,BR,-9.41,-38.21,70.99,81,26,7.27,scattered clouds
581,Jaru,BR,-10.44,-62.47,76.98,56,0,3.36,clear sky
582,Spring Hill,US,28.48,-82.53,92.05,61,0,8.05,clear sky
583,Veraval,IN,20.90,70.37,83.26,82,100,19.15,overcast clouds
584,Ilhabela,BR,-23.78,-45.36,63.16,84,6,4.72,clear sky
585,Kazachinskoye,RU,57.70,93.28,52.77,86,100,2.48,overcast clouds
586,Straumen,NO,63.87,11.30,71.6,75,17,2.04,few clouds
587,Sabang,ID,5.89,95.32,82.92,72,100,21.16,overcast clouds
588,Liku,ID,-0.73,119.89,75.65,92,100,4.07,light rain
589,Benghazi,LY,32.12,20.07,82.0,49,0,7.99,clear sky
590,Lobito,AO,-12.35,13.55,69.21,84,7,3.94,clear sky
591,Indramayu,ID,-6.33,108.32,75.7,79,80,7.23,broken clouds
592,Kluczbork,PL,50.97,18.22,71.98,82,26,7.45,scattered clouds
593,Luau,AO,-10.71,22.22,59.38,46,8,6.31,clear sky
594,Elko,US,41.00,-115.50,90.73,12,3,8.99,clear sky
595,Launceston,AU,-41.45,147.17,41.81,92,26,8.05,scattered clouds
596,Barranca,PE,-10.75,-77.77,63.55,76,23,9.1,few clouds
597,Along,IN,28.17,94.77,73.49,98,91,0.47,overcast clouds
598,Linxia,CN,35.60,103.21,59.92,54,100,4.88,overcast clouds
599,Voka,EE,59.40,27.58,63.03,67,0,6.6,clear sky
600,Raudeberg,NO,61.99,5.14,65.07,69,55,6.53,broken clouds
601,Hovd,MN,48.01,91.64,73.09,28,98,7.05,overcast clouds
602,Imbituba,BR,-28.24,-48.67,53.1,93,0,1.72,clear sky
603,Moron,AR,-34.65,-58.62,57.09,63,2,3.78,clear sky
604,Parvatsar,IN,26.88,74.77,77.49,88,100,7.43,moderate rain
605,La Plata,AR,-34.92,-57.95,54.03,59,5,6.42,clear sky
606,Burnie,AU,-41.07,145.92,42.94,71,77,4.88,broken clouds
607,Pokhara,NP,28.23,83.98,71.01,92,98,3.13,overcast clouds
608,Freeport,US,40.66,-73.58,88.99,57,19,5.99,few clouds
609,Vygonichi,RU,53.10,34.07,62.71,67,31,4.47,scattered clouds
610,Sabla,NG,12.75,4.71,85.82,47,10,6.55,light rain
611,Buenaventura,CO,3.88,-77.03,78.46,90,72,3.91,broken clouds
612,Skierniewice,PL,51.95,20.16,71.04,81,14,6.93,few clouds
613,Chumikan,RU,54.72,135.31,69.69,66,25,17.47,scattered clouds
614,Melito Di Porto Salvo,IT,37.92,15.77,82.29,73,14,2.3,few clouds
615,Varnamo,SE,57.19,14.04,69.28,71,100,1.99,overcast clouds
616,Quelimane,MZ,-17.88,36.89,63.75,96,18,3.98,few clouds
617,Umm Lajj,SA,25.02,37.27,84.87,48,0,5.44,clear sky
618,Vostok,RU,46.49,135.88,60.1,92,79,3.2,broken clouds
619,Baker City,US,44.77,-117.83,81.59,28,0,0.0,clear sky
620,Shimanovsk,RU,52.00,127.70,72.23,73,1,5.32,clear sky
621,Lazaro Cardenas,MX,17.96,-102.20,86.34,67,64,12.8,broken clouds
622,Tarko-Sale,RU,64.92,77.78,53.46,61,29,22.15,scattered clouds
623,Ituporanga,BR,-27.41,-49.60,51.22,82,0,1.97,clear sky
624,Sorland,NO,67.67,12.69,53.46,82,66,8.55,broken clouds
625,Ostrovnoy,RU,68.05,39.51,49.48,95,74,8.66,broken clouds
626,Nuevo Progreso,MX,23.17,-97.95,92.53,47,51,5.01,broken clouds
627,San Carlos Del Zulia,VE,9.00,-71.91,82.22,73,70,7.63,broken clouds
628,Silifke,TR,36.38,33.93,80.83,62,0,3.42,clear sky
629,Preobrazheniye,RU,42.90,133.91,61.9,80,100,7.2,overcast clouds
630,Port Hawkesbury,CA,45.62,-61.35,73.35,60,0,8.05,clear sky
631,Kysyl-Syr,RU,63.90,122.76,65.44,60,4,3.58,clear sky
632,Waipawa,NZ,-41.41,175.52,45.09,73,94,4.74,overcast clouds
633,Aykhal,RU,66.00,111.50,57.24,67,93,3.0,overcast clouds
634,Seoni,IN,22.08,79.53,74.57,90,100,1.21,moderate rain
635,Cabo San Lucas,MX,22.89,-109.91,92.61,66,18,10.0,few clouds
636,Amnat Charoen,TH,15.92,104.75,77.16,90,100,9.04,overcast clouds
637,Bada,RU,51.39,109.87,64.8,78,98,2.33,overcast clouds
638,Santiago De Cao,PE,-7.96,-79.24,64.53,77,6,9.22,fog
639,Belen De Umbria,CO,5.20,-75.87,72.25,94,79,2.3,light rain
640,La Ceiba,HN,15.76,-86.78,84.02,74,75,13.8,broken clouds
641,Demyansk,RU,57.64,32.47,60.04,61,6,2.44,clear sky
642,Tambura,SS,5.60,27.47,69.55,81,34,1.36,scattered clouds
643,Sao Jose Da Coroa Grande,BR,-8.90,-35.15,75.97,89,89,7.99,light rain
644,Mastic Beach,US,40.77,-72.85,82.98,62,36,8.01,scattered clouds
645,Hatillo,PR,18.49,-66.83,86.11,78,11,11.01,few clouds
646,Ambanja,MG,-13.68,48.45,66.92,75,45,4.61,scattered clouds
647,Tshikapa,CD,-6.42,20.80,71.02,40,5,1.83,clear sky
648,Malakal,SS,9.53,31.66,72.46,83,75,2.26,broken clouds
649,Opotiki,NZ,-38.08,177.28,52.39,73,98,2.48,overcast clouds
650,Pemangkat,ID,1.17,108.97,76.1,87,100,7.2,overcast clouds
651,Pandan,PH,14.05,124.17,80.06,85,100,11.5,overcast clouds
652,Yilan,TW,24.76,121.75,83.91,90,61,3.49,broken clouds
653,Chicama,PE,-7.84,-79.15,63.14,67,6,8.57,clear sky
654,Sars,RU,56.55,57.14,45.9,95,58,8.81,broken clouds
655,Nantucket,US,41.28,-70.10,74.08,73,41,9.33,scattered clouds
656,Loucna Nad Desnou,CZ,50.07,17.09,72.66,78,1,3.85,clear sky
657,Urumqi,CN,43.80,87.60,76.15,41,0,6.71,clear sky
658,Wana,PK,32.30,69.57,83.32,44,0,3.6,clear sky
659,Saryg-Sep,RU,51.50,95.60,63.82,43,99,3.6,overcast clouds
660,Isla Aguada,MX,18.78,-91.47,83.97,74,100,11.97,overcast clouds
661,Tucuman,AR,-26.82,-65.22,64.4,48,20,4.61,few clouds
662,Praia,CV,14.92,-23.51,75.74,73,20,14.97,few clouds
663,Muskogee,US,35.58,-95.33,96.35,43,0,6.6,clear sky
664,Lavrentiya,RU,65.58,-171.00,48.52,80,95,7.99,overcast clouds
665,Tabuk,PH,17.42,121.44,73.96,93,100,2.13,overcast clouds
666,Valea Nucarilor,RO,45.03,28.93,72.37,65,75,3.44,broken clouds
667,Mpika,ZM,-11.83,31.45,54.03,93,64,6.6,broken clouds
668,Auki,SB,-8.77,160.70,81.41,75,61,7.7,light rain
669,Zinder,NE,13.81,8.99,91.04,35,81,12.73,broken clouds
670,Charlestown,AU,-32.95,151.67,54.68,89,100,5.99,overcast clouds
671,Ucluelet,CA,48.93,-125.55,66.51,84,55,3.0,broken clouds
672,Buin,CL,-33.73,-70.75,68.32,51,48,2.91,scattered clouds
673,Esso,RU,55.93,158.70,61.11,68,100,8.97,overcast clouds
674,Muhoroni,KE,-0.15,35.20,62.83,89,92,3.22,overcast clouds
675,Lasa,IT,46.62,10.70,66.36,93,5,3.44,clear sky
676,Skjervoy,NO,70.03,20.97,53.6,90,68,10.22,broken clouds
677,Requena,ES,39.49,-1.10,65.79,89,75,7.85,broken clouds
678,Kochi,IN,9.94,76.26,75.02,84,99,5.97,light rain
679,Noumea,NC,-22.28,166.46,72.0,99,43,8.03,scattered clouds
680,Shenzhen,CN,22.55,114.07,81.21,95,100,10.27,overcast clouds
681,Uyskoye,RU,54.38,60.00,47.66,84,46,1.12,scattered clouds
682,Esmeraldas,BR,-19.76,-44.31,74.26,41,0,2.86,clear sky
683,Ugoofaaru,MV,5.67,73.00,81.57,78,100,16.24,moderate rain
684,Mulchen,CL,-37.72,-72.23,42.66,94,100,6.38,overcast clouds
685,Zholymbet,KZ,51.74,71.71,51.06,71,7,7.11,clear sky
686,Qesarya,IL,32.52,34.90,74.35,73,0,3.87,clear sky
687,Peterhead,GB,57.51,-1.80,57.6,90,99,8.57,overcast clouds
688,Quesnel,CA,53.00,-122.50,73.9,53,0,9.22,clear sky
689,Hualmay,PE,-11.10,-77.61,64.49,75,26,9.22,scattered clouds
690,Kinablangan,PH,7.69,126.55,78.55,79,94,4.41,overcast clouds
691,Tecolutla,MX,20.48,-97.02,86.07,60,10,12.06,clear sky
692,Brigantine,US,39.41,-74.36,89.04,54,0,13.8,clear sky
693,Staroaleyskoye,RU,51.01,82.00,51.76,81,0,1.63,clear sky
694,Itoman,JP,26.12,127.67,82.42,83,75,11.5,heavy intensity rain
695,Manado,ID,1.49,124.85,72.37,94,20,2.3,few clouds
696,Pangnirtung,CA,66.15,-65.71,41.0,93,100,8.05,overcast clouds
697,Uarini,BR,-2.99,-65.11,80.64,70,67,3.15,broken clouds
698,Mangrol,IN,21.12,70.12,83.53,81,100,19.24,overcast clouds
699,Nelson Bay,AU,-32.72,152.15,57.0,97,100,8.01,overcast clouds
700,Dentsville,US,34.06,-80.96,86.61,78,75,6.91,light rain
701,Araouane,ML,18.90,-3.53,99.77,16,68,24.34,broken clouds
702,Tongliao,CN,43.61,122.27,74.86,70,100,2.21,overcast clouds
703,Jardim,BR,-21.48,-56.14,71.46,48,0,3.2,clear sky
704,Inongo,CD,-1.95,18.27,72.79,56,11,1.03,few clouds
705,Mildura,AU,-34.20,142.15,41.16,91,0,9.66,clear sky
706,Chernyshevskiy,RU,63.01,112.47,62.62,62,99,1.48,overcast clouds
707,Mongo,TD,12.18,18.69,79.2,68,69,2.8,broken clouds
708,Fairbanks,US,64.84,-147.72,77.59,43,75,0.0,smoke
709,Constitucion,CL,-35.33,-72.42,50.02,79,90,7.7,overcast clouds
710,Axim,GH,4.87,-2.24,75.96,85,100,9.08,overcast clouds
711,Sal Rei,CV,16.18,-22.92,72.66,80,48,12.41,scattered clouds
712,Puksoozero,RU,62.59,40.61,49.93,62,51,2.84,broken clouds
713,Berani,PK,25.79,68.81,87.3,69,100,20.89,overcast clouds
714,Padampur,IN,29.68,73.62,83.32,71,100,23.53,overcast clouds
715,Juneau,US,58.30,-134.42,64.85,76,85,2.71,overcast clouds
716,Mogzon,RU,51.74,111.96,65.57,70,78,1.45,broken clouds
